[{"city":"‘Abbasabad","lon":33.3665,"lat":45.2009},{"city":"‘Ayn al Bay<U+1E11>a","lon":123.9833,"lat":9.95},{"city":"‘Ibri","lon":-2.3667,"lat":12.25},{"city":"<U+0411><U+043E><U+0433><U+0434><U+0430><U+043D><U+0446><U+0438>","lon":7.261,"lat":6.2611},{"city":"<U+0427><U+0443><U+0447><U+0435><U+0440> - <U+0421><U+0430><U+043D><U+0434><U+0435><U+0432><U+043E>","lon":113.6183,"lat":-8.1953},{"city":"<U+1E28>akama","lon":-91.3758,"lat":15.8164},{"city":"Aasiaat","lon":-52.8667,"lat":68.7167},{"city":"Abelheira","lon":-8.0949,"lat":41.6124},{"city":"Abeokuta","lon":-14.6167,"lat":13.3667},{"city":"Abreu e Lima","lon":-34.8833,"lat":-7.9},{"city":"Ad Dis ash Sharqiyah","lon":112.1211,"lat":28.1567},{"city":"Adassil","lon":-8.4908,"lat":31.1078},{"city":"Adiaké","lon":109.1204,"lat":-6.8945},{"city":"Adzopé","lon":26.338,"lat":-30.2614},{"city":"Agía Triáda","lon":117.1037,"lat":28.6395},{"city":"Agoo","lon":120.3666,"lat":16.3228},{"city":"Agualva de Cima","lon":118.3857,"lat":29.8154},{"city":"Akhfennir","lon":24.4556,"lat":53.1519},{"city":"Akkol’","lon":20.0836,"lat":41.7797},{"city":"Al <U+1E28>awamidiyah","lon":-89.4333,"lat":14.6667},{"city":"Al Butay<U+1E29>ah","lon":-7.8383,"lat":37.5058},{"city":"Al Kiswah","lon":36.2333,"lat":33.35},{"city":"Al Qarmadah","lon":10.7833,"lat":34.75},{"city":"Al Quwaysimah","lon":35.95,"lat":31.9167},{"city":"Alagoinhas","lon":-36.3833,"lat":-10.1667},{"city":"Alajuelita","lon":-84.1004,"lat":9.9016},{"city":"Alcalá","lon":120.1434,"lat":30.4902},{"city":"Além do Rio","lon":40.5389,"lat":-2.5228},{"city":"Alenquer","lon":-54.7667,"lat":-1.9333},{"city":"Alfonso","lon":-60.8396,"lat":-33.9125},{"city":"Almeirim","lon":-52.5667,"lat":-1.5333},{"city":"Altamira","lon":-59.3692,"lat":-34.6666},{"city":"Altares","lon":-105.8833,"lat":24.3833},{"city":"Amio","lon":150.75,"lat":-6.1167},{"city":"Amman","lon":35.9333,"lat":31.95},{"city":"Amsterdam Binnenstad en Oostelijk Havengebied","lon":22.5025,"lat":41.1392},{"city":"Anfusi","lon":111.5855,"lat":30.5251},{"city":"Angoulême","lon":118.5593,"lat":31.6191},{"city":"Anju","lon":118.0024,"lat":30.4771},{"city":"Annopol","lon":27.6,"lat":53.6667},{"city":"Anoek","lon":106.5231,"lat":-6.5986},{"city":"Ansermanuevo","lon":-75.995,"lat":4.7972},{"city":"Anta","lon":-64.4584,"lat":-24.9171},{"city":"Antíparos","lon":-40.6167,"lat":-19.5333},{"city":"Antonio Toledo Corro","lon":118.4262,"lat":31.574},{"city":"Antsirabe","lon":49.4667,"lat":-13.7667},{"city":"Anulid","lon":120.4967,"lat":15.8395},{"city":"Apiaí","lon":118.9095,"lat":31.7356},{"city":"Aqsay","lon":52.995,"lat":51.1678},{"city":"Aracruz","lon":-40.2667,"lat":-19.8167},{"city":"Aranitas","lon":19.8067,"lat":40.5944},{"city":"Araruama","lon":-42.3333,"lat":-22.8833},{"city":"Ardazubre","lon":120.3152,"lat":27.7205},{"city":"Areguá","lon":17.2079,"lat":49.6389},{"city":"Argelia","lon":-62.5,"lat":-13.45},{"city":"Ariana","lon":23.0833,"lat":36.7667},{"city":"Aricagua","lon":-65.0728,"lat":7.5172},{"city":"Arkalyk","lon":66.9114,"lat":50.2486},{"city":"Aroroy","lon":123.3977,"lat":12.5111},{"city":"Arras","lon":20.3242,"lat":41.7358},{"city":"Arrepiado","lon":-67.5333,"lat":-10.5},{"city":"Arroyo Seco","lon":-60.5086,"lat":-33.1549},{"city":"Artur Nogueira","lon":-47.15,"lat":-22.5833},{"city":"Asahi","lon":140.65,"lat":35.7167},{"city":"Asenovgrad","lon":24.8667,"lat":42.0167},{"city":"Ash Shajarah","lon":35.941,"lat":32.6446},{"city":"Asopía","lon":-1.979,"lat":42.3931},{"city":"Astara","lon":48.875,"lat":38.456},{"city":"Asunción","lon":-84.1004,"lat":9.9016},{"city":"Atlanta","lon":-82.9833,"lat":9.7167},{"city":"Åtvidaberg","lon":43.0636,"lat":56.1311},{"city":"Aydun","lon":12.1867,"lat":11.7443},{"city":"Azacualpa","lon":-89.4333,"lat":14.6667},{"city":"Azadshahr","lon":120.2836,"lat":15.8349},{"city":"Azaruja","lon":-7.7796,"lat":38.7051},{"city":"Azul","lon":14.9199,"lat":-9.2956},{"city":"Bachok","lon":102.4,"lat":6.0667},{"city":"Bachuan","lon":103.6943,"lat":31.5074},{"city":"Bacnor East","lon":111.9579,"lat":-7.2217},{"city":"Baddomalhi","lon":74.6683,"lat":31.9928},{"city":"Bagumbayan","lon":123.6667,"lat":13.45},{"city":"Bahía de Caráquez","lon":-77.6403,"lat":0.8714},{"city":"Baing","lon":120.5592,"lat":-10.2209},{"city":"Baisha","lon":118.5716,"lat":30.2575},{"city":"Baiyang","lon":117.5306,"lat":30.5256},{"city":"Bakersfield","lon":-119.0178,"lat":35.3733},{"city":"Balading","lon":123.7121,"lat":13.3906},{"city":"Balaogan","lon":123.2818,"lat":13.4328},{"city":"Balas","lon":69.6339,"lat":36.4879},{"city":"Balibago","lon":121.2971,"lat":13.6093},{"city":"Ballyhaunis","lon":-8.7667,"lat":53.7667},{"city":"Bamiantong","lon":130.5333,"lat":44.9333},{"city":"Ban Na San","lon":104.0667,"lat":20.8667},{"city":"Ban Phan Don","lon":102.9726,"lat":17.1427},{"city":"Bandung","lon":109.1204,"lat":-6.8945},{"city":"Bandungan Timur","lon":-40.2667,"lat":-19.8167},{"city":"Bang Klam","lon":100.4107,"lat":7.0895},{"city":"Bang Pa-in","lon":100.5759,"lat":14.2278},{"city":"Bangekdewa","lon":116.1921,"lat":-8.7476},{"city":"Bangker","lon":111.3289,"lat":-6.7321},{"city":"Banikoara","lon":2.4333,"lat":11.3},{"city":"Banjar Ambengan","lon":115.1193,"lat":-8.1689},{"city":"Banjar Bengkelgede","lon":115.0943,"lat":-8.5882},{"city":"Banjar Dukuh","lon":115.1607,"lat":-8.1511},{"city":"Banjaranyar","lon":111.1253,"lat":-6.861},{"city":"Bankim","lon":11.5,"lat":6.0833},{"city":"Baños","lon":117.8653,"lat":32.3386},{"city":"Baoshui","lon":114.8167,"lat":38.7333},{"city":"Baranti","lon":107.4242,"lat":-7.4101},{"city":"Baras","lon":104.6189,"lat":-5.4948},{"city":"Barayong","lon":121.8372,"lat":17.4673},{"city":"Barong","lon":93.9,"lat":31.1},{"city":"Batouri","lon":14.3667,"lat":4.4333},{"city":"Batuidu","lon":123.4167,"lat":-10.6333},{"city":"Bayt Maqdum","lon":33.7,"lat":-1.6833},{"city":"Beauceville","lon":-70.7667,"lat":46.2},{"city":"Beaung Tengah","lon":115.161,"lat":-8.4215},{"city":"Bebedouro","lon":-35.75,"lat":-9.65},{"city":"Bekwai","lon":-1.5833,"lat":6.45},{"city":"Belén de Escobar","lon":115.966,"lat":28.506},{"city":"Belisario Dominguez","lon":-93.7,"lat":15.8917},{"city":"Bell Ville","lon":-62.6887,"lat":-32.6259},{"city":"Bellavista","lon":-72.7833,"lat":-36.05},{"city":"Belogorsk","lon":83.1533,"lat":49.4858},{"city":"Belyy Gorodok","lon":37.5125,"lat":56.965},{"city":"Bemposta","lon":-43.0981,"lat":-22.1397},{"city":"Bendilmuning","lon":111.9417,"lat":-8.0925},{"city":"Benghazi","lon":20.0667,"lat":32.1167},{"city":"Bengtsfors","lon":12.2167,"lat":59.0333},{"city":"Berbérati","lon":119.2361,"lat":30.1522},{"city":"Beregovoy","lon":75.8803,"lat":53.1314},{"city":"Bergen","lon":15.1333,"lat":48.9167},{"city":"Bichena","lon":38.2,"lat":10.45},{"city":"Binafun","lon":35.4153,"lat":32.5908},{"city":"Bistrica pri Tržicu","lon":-61.1681,"lat":-33.0442},{"city":"Black River","lon":145.3167,"lat":-40.85},{"city":"Blagoveshchenka","lon":72.95,"lat":40.9833},{"city":"Bluff","lon":149.0685,"lat":-23.5805},{"city":"Boca Chica","lon":-72.4333,"lat":4.85},{"city":"Boli","lon":25.85,"lat":3.9},{"city":"Bonpland","lon":-57.4315,"lat":-29.824},{"city":"Bontoc","lon":122.2787,"lat":10.7218},{"city":"Borik","lon":18.4456,"lat":44.2425},{"city":"Bošovice","lon":82.6347,"lat":42.1606},{"city":"Botucatu","lon":-48.4333,"lat":-22.8667},{"city":"Boucherville","lon":-73.45,"lat":45.6},{"city":"Bourgoin-Jallieu","lon":118.6809,"lat":30.8234},{"city":"Brejo Santo","lon":-39,"lat":-7.4833},{"city":"Brezí","lon":31.8933,"lat":-28.762},{"city":"Bronx","lon":-116.5464,"lat":48.3519},{"city":"Buenaventura","lon":-68.2833,"lat":-21.25},{"city":"Bugang","lon":91.5,"lat":30},{"city":"Bugko","lon":124.7923,"lat":12.5356},{"city":"Bugul’ma","lon":-149.8667,"lat":-17.4833},{"city":"Bungkal","lon":111.9579,"lat":-7.2217},{"city":"Bungur","lon":106.8479,"lat":-6.1705},{"city":"Bunut","lon":47.989,"lat":40.9182},{"city":"Burgersdorp","lon":26.3286,"lat":-30.9977},{"city":"Burgkirchen","lon":13.1,"lat":48.2},{"city":"Byala Slatina","lon":23.9333,"lat":43.4667},{"city":"Bystrzyca","lon":25.8833,"lat":54.8},{"city":"Cabatang","lon":124.4491,"lat":9.9036},{"city":"Caja","lon":20.5047,"lat":41.8783},{"city":"Cajuru","lon":-44.35,"lat":-20.7833},{"city":"Calape","lon":123.8748,"lat":9.8922},{"city":"Calibungan","lon":120.7199,"lat":15.5823},{"city":"Calingcing","lon":106.4953,"lat":-6.5257},{"city":"Calvos","lon":-7.896,"lat":41.9479},{"city":"Campoalegre","lon":-75.7275,"lat":6.5419},{"city":"Cañasgordas","lon":71.3333,"lat":40.1833},{"city":"Cangshan","lon":118.6809,"lat":30.8234},{"city":"Capacho Viejo","lon":38.3082,"lat":50.2857},{"city":"Carauari","lon":-66.8981,"lat":-4.8792},{"city":"Carcar","lon":-1.979,"lat":42.3931},{"city":"Carrefour","lon":-72.3167,"lat":19.4833},{"city":"Casal da Serra","lon":-7.5356,"lat":40.0545},{"city":"Casalinho","lon":-8.3064,"lat":40.0458},{"city":"Casilda","lon":-61.1681,"lat":-33.0442},{"city":"Castelsarrasin","lon":1.1067,"lat":44.0403},{"city":"Castries","lon":3.9836,"lat":43.6779},{"city":"Centenario","lon":-61.4333,"lat":-35.8333},{"city":"Cergy-Pontoise","lon":2.0333,"lat":49},{"city":"Cermee","lon":114.0487,"lat":-7.7772},{"city":"Cernošín","lon":-48.3667,"lat":-22.6667},{"city":"Cesson-Sévigné","lon":13.1603,"lat":11.8464},{"city":"Champaign","lon":-88.2433,"lat":40.1164},{"city":"Chang’an","lon":-7.7796,"lat":38.7051},{"city":"Changhan","lon":103.6039,"lat":16.1387},{"city":"Changjiang","lon":115.7229,"lat":25.3457},{"city":"Changtang","lon":118.4016,"lat":30.897},{"city":"Changzhou","lon":116.8019,"lat":29.0193},{"city":"Chão","lon":55.3877,"lat":57.7185},{"city":"Chemnitz","lon":13.15,"lat":53.5833},{"city":"Chencai","lon":120.3774,"lat":29.5845},{"city":"Chenggang","lon":115.4876,"lat":26.509},{"city":"Cheremshan","lon":51.5,"lat":54.6667},{"city":"Chiconi","lon":45.1106,"lat":-12.8333},{"city":"Chita","lon":15.595,"lat":-8.3087},{"city":"Chitcani","lon":120.1434,"lat":30.4902},{"city":"Chlói","lon":85.0781,"lat":52.3044},{"city":"Chofugaoka","lon":130.6167,"lat":33.7333},{"city":"Chuarrancho","lon":-90.5086,"lat":14.8217},{"city":"Churovichi","lon":31.9926,"lat":52.1693},{"city":"Cibeunying","lon":108.7136,"lat":-7.2402},{"city":"Cicurug","lon":106.4222,"lat":-6.2819},{"city":"Cigintung","lon":108.7527,"lat":-7.2312},{"city":"Cihua","lon":114.0274,"lat":28.0123},{"city":"Cikandang","lon":108.8624,"lat":-6.9373},{"city":"Cikaso","lon":107.0756,"lat":-6.6669},{"city":"Cikujang","lon":107.0286,"lat":-6.6772},{"city":"Cileueur","lon":107.2539,"lat":-6.8703},{"city":"Cinyumput","lon":106.8909,"lat":-7.0067},{"city":"Cipari","lon":108.7635,"lat":-7.4391},{"city":"Citeguh","lon":107.9513,"lat":-7.3372},{"city":"Ciudad Barrios","lon":-88.2667,"lat":13.7667},{"city":"Ciwidara","lon":107.4053,"lat":-7.0324},{"city":"Claveria","lon":121.0832,"lat":18.6074},{"city":"Cobh","lon":-8.2992,"lat":51.8572},{"city":"Colatina","lon":-40.6167,"lat":-19.5333},{"city":"Colonia Catuete","lon":-54.6167,"lat":-24.1333},{"city":"Colorado Springs","lon":-104.8208,"lat":38.8339},{"city":"Comagascas","lon":125.5597,"lat":9.1397},{"city":"Conchamarca","lon":-76.2153,"lat":-10.0378},{"city":"Concord","lon":151.1,"lat":-33.8667},{"city":"Concordia","lon":-62.9667,"lat":17.4833},{"city":"Coratatal","lon":114.0783,"lat":-7.7799},{"city":"Cork","lon":-66.9167,"lat":45.6833},{"city":"Coroatá","lon":111.1253,"lat":-6.861},{"city":"Corpus","lon":-55.5103,"lat":-27.1281},{"city":"Corralito","lon":-64.1922,"lat":-32.0246},{"city":"Corredoura","lon":-7.8383,"lat":37.5058},{"city":"Cuilco","lon":-91.9667,"lat":15.4},{"city":"Cumba","lon":14.2993,"lat":-11.0442},{"city":"Da-an Sur","lon":122.4202,"lat":11.2612},{"city":"Da’an","lon":-64.1922,"lat":-32.0246},{"city":"Dabola","lon":-4.0445,"lat":8.3158},{"city":"Dagestanskiye Ogni","lon":48.192,"lat":42.1159},{"city":"Daguo","lon":118.991,"lat":30.9236},{"city":"Daji","lon":119.0706,"lat":27.605},{"city":"Dajing","lon":121.05,"lat":27.95},{"city":"Dal’nerechensk","lon":-7.8383,"lat":37.5058},{"city":"Dallas","lon":-97.4833,"lat":51.3833},{"city":"Dalongzhan","lon":111.753,"lat":29.2047},{"city":"Dankalwa","lon":12.1867,"lat":11.7443},{"city":"Dapitan","lon":122.65,"lat":10.9333},{"city":"Dar an Nasr","lon":7.261,"lat":6.2611},{"city":"Dassun","lon":121.6816,"lat":17.7204},{"city":"Dayuanhuizu","lon":105.2344,"lat":32.4231},{"city":"Debnica Kaszubska","lon":-41.3333,"lat":-12.05},{"city":"Debre Zeyit","lon":37.8,"lat":10.4667},{"city":"Deir <U+1E24>anna","lon":127.2833,"lat":50.55},{"city":"Delcevo","lon":22.7694,"lat":41.9672},{"city":"Des Moines","lon":-117.9669,"lat":33.9319},{"city":"Desa Baregbeg","lon":108.3601,"lat":-7.3039},{"city":"Desamparados","lon":-84.1864,"lat":10.0241},{"city":"Dewetsdorp","lon":26.6651,"lat":-29.5827},{"city":"Dežanovac","lon":-72.5667,"lat":46.7167},{"city":"Dharan Bazar","lon":115.2306,"lat":28.6653},{"city":"Dhi as Sufal","lon":14.9199,"lat":-9.2956},{"city":"Didi Lilo","lon":44.9658,"lat":41.7364},{"city":"Dikhil","lon":42.3739,"lat":11.1086},{"city":"Dingyan","lon":120.0167,"lat":31.75},{"city":"Diyarb Najm","lon":31.4406,"lat":30.7542},{"city":"Dmitriyevka","lon":41,"lat":43.0833},{"city":"Dobje pri Planini","lon":15.4089,"lat":46.1367},{"city":"Dobre Miasto","lon":20.3908,"lat":53.9877},{"city":"Dobrica","lon":18.0147,"lat":43.1592},{"city":"Dobšice","lon":28.8116,"lat":-30.3436},{"city":"Doljevac","lon":21.8297,"lat":43.1961},{"city":"Dolní Studénky","lon":69.6,"lat":42.3},{"city":"Dolores","lon":-57.6792,"lat":-36.3132},{"city":"Dongbei","lon":116.1312,"lat":27.2097},{"city":"Dongfanghong","lon":116.9833,"lat":30.1},{"city":"Dongfeng","lon":117.15,"lat":30.55},{"city":"Dongfu","lon":122.7558,"lat":30.1397},{"city":"Donglai","lon":116.0484,"lat":27.9081},{"city":"Dongqu","lon":119.7589,"lat":28.6626},{"city":"Dongting","lon":119.5197,"lat":30.8722},{"city":"Dongzha","lon":120.7859,"lat":30.7611},{"city":"Doom","lon":73.6183,"lat":33.071},{"city":"Dorupare","lon":121.053,"lat":-8.8229},{"city":"Dovhe","lon":31.4411,"lat":51.6562},{"city":"Dublje","lon":17.7556,"lat":43.2242},{"city":"Dukuhmencek Lor","lon":113.6489,"lat":-8.169},{"city":"Dukuhsia","lon":113.6183,"lat":-8.1953},{"city":"Dumalinao","lon":123.3694,"lat":7.8191},{"city":"Duobagou","lon":117.5306,"lat":30.5256},{"city":"Düsseldorf","lon":113.42,"lat":-8.104},{"city":"Duwaktenggi","lon":125.5731,"lat":9.455},{"city":"Dzüünbulag","lon":115.0292,"lat":-8.3227},{"city":"Ea Drang","lon":29.2167,"lat":54.4167},{"city":"Edinburgh","lon":-3.2,"lat":55.95},{"city":"El Espino","lon":-62.4167,"lat":-19.1833},{"city":"El Monte","lon":-65.3333,"lat":-21.1667},{"city":"El Paso","lon":-68.9147,"lat":-49.9851},{"city":"El Quetzal","lon":-91.3758,"lat":15.8164},{"city":"El Retén","lon":81.5404,"lat":53.6924},{"city":"Empangeni","lon":31.8933,"lat":-28.762},{"city":"Erfurt","lon":11.0333,"lat":50.9833},{"city":"Esigodini","lon":28.9333,"lat":-20.3},{"city":"Évodoula","lon":119.5197,"lat":30.8722},{"city":"Famaillá","lon":104.4025,"lat":52.4658},{"city":"Farsta","lon":18.0833,"lat":59.25},{"city":"Fayaoué","lon":116.8029,"lat":28.4792},{"city":"Felege Neway","lon":36.8833,"lat":6.3},{"city":"Fengtai","lon":116.7296,"lat":32.7082},{"city":"Fengxi","lon":118.3933,"lat":30.2659},{"city":"Fengyuan","lon":119.792,"lat":28.2022},{"city":"Fernando de Noronha (Distrito Estadual)","lon":99.9833,"lat":1.7167},{"city":"Fiorentino","lon":12.45,"lat":43.9},{"city":"Flores da Cunha","lon":-51.1822,"lat":-29.0287},{"city":"Fonadhoo","lon":106.3798,"lat":-6.5271},{"city":"Formosa","lon":-58.1781,"lat":-26.1775},{"city":"Fornos","lon":-8.8833,"lat":42.8667},{"city":"Foumban","lon":10.9167,"lat":5.7167},{"city":"Fraile Pintado","lon":-64.7994,"lat":-23.9408},{"city":"Francova Lhota","lon":18.1043,"lat":49.198},{"city":"Fubin","lon":118.9095,"lat":31.7356},{"city":"Fuenlabrada","lon":-3.7941,"lat":40.2842},{"city":"Fuji","lon":120.9602,"lat":29.6372},{"city":"Fulin","lon":115.966,"lat":28.506},{"city":"Gadingrejo","lon":109.6844,"lat":-7.3992},{"city":"Gafargaon","lon":90.5667,"lat":24.4333},{"city":"Gajrug","lon":106.3798,"lat":-6.5271},{"city":"Gala","lon":68.435,"lat":33.3053},{"city":"Gällivare","lon":5.5868,"lat":46.8222},{"city":"Galugah","lon":-68.2833,"lat":-21.25},{"city":"Gammad","lon":121.7437,"lat":17.7104},{"city":"Ganhe","lon":120.2637,"lat":34.1599},{"city":"Ganjiachang","lon":112.0667,"lat":29.75},{"city":"Gapan","lon":6.15,"lat":8.7167},{"city":"Garnich","lon":5.9525,"lat":49.6167},{"city":"Gejiu","lon":103.1635,"lat":23.306},{"city":"Gemena","lon":19.7667,"lat":3.25},{"city":"General Luna","lon":122.0739,"lat":10.8719},{"city":"Gevgelija","lon":22.5025,"lat":41.1392},{"city":"Giado","lon":12.0167,"lat":31.95},{"city":"Gigante","lon":-41.2167,"lat":-16.2167},{"city":"Gijon","lon":-5.6615,"lat":43.5357},{"city":"Gingsir","lon":111.2684,"lat":-6.7417},{"city":"Golomunta","lon":120.5128,"lat":-8.4636},{"city":"Gombe","lon":14.6,"lat":-8.5333},{"city":"Gomel","lon":30.9833,"lat":52.4417},{"city":"Gongyi","lon":118.2558,"lat":30.9247},{"city":"Goragorskiy","lon":45.0857,"lat":43.5002},{"city":"Gorbatov","lon":43.0636,"lat":56.1311},{"city":"Gorey","lon":42.5458,"lat":9.2319},{"city":"Gorgan","lon":112.2667,"lat":44.6833},{"city":"Górki Wielkie","lon":19.8067,"lat":40.5944},{"city":"Göteborg","lon":106.4467,"lat":-6.3711},{"city":"Grand Rapids","lon":-99.2833,"lat":53.1667},{"city":"Greboszów","lon":-57.6792,"lat":-36.3132},{"city":"Greenville","lon":-7.5844,"lat":54.0697},{"city":"Grindavík","lon":123.1567,"lat":11.303},{"city":"Groznyy","lon":31.4419,"lat":53.2642},{"city":"Guadalupe","lon":-65.25,"lat":-18.85},{"city":"Guayaybi","lon":-56.4333,"lat":-24.5333},{"city":"Guji","lon":114.8447,"lat":28.7344},{"city":"Guozhai","lon":116.3167,"lat":33.4333},{"city":"Hadyach","lon":33.991,"lat":50.3711},{"city":"Hakui","lon":136.7833,"lat":36.8833},{"city":"Halamendu","lon":-70.1736,"lat":-3.9139},{"city":"Halimaung Jaya (F-3)","lon":29.2167,"lat":54.4167},{"city":"Hebu","lon":116.3983,"lat":27.7882},{"city":"Hedi","lon":119.2795,"lat":27.5773},{"city":"Henghe","lon":116.1167,"lat":30.9667},{"city":"Hengli","lon":115.403,"lat":27.9713},{"city":"Henglu","lon":118.638,"lat":30.6194},{"city":"Herby","lon":18.884,"lat":50.7535},{"city":"Hermanus","lon":26.338,"lat":-30.2614},{"city":"Herrljunga","lon":13.0333,"lat":58.0833},{"city":"Hesperange","lon":6.1514,"lat":49.5681},{"city":"Higashine","lon":140.4006,"lat":38.4389},{"city":"Hluhluwe","lon":32.2833,"lat":-28.0333},{"city":"Hoima","lon":31.3436,"lat":1.4356},{"city":"Hollywood","lon":-9.8956,"lat":51.8297},{"city":"Holoubkov","lon":13.692,"lat":49.7756},{"city":"Holýšov","lon":130.6167,"lat":33.7333},{"city":"Honghua’erji","lon":-46.7833,"lat":-23.5667},{"city":"Hongjiazui","lon":116.6576,"lat":28.6991},{"city":"Honglin","lon":118.982,"lat":30.9797},{"city":"Hongor","lon":112.2667,"lat":44.6833},{"city":"Hongqi","lon":118.3303,"lat":31.5559},{"city":"Hongxing","lon":118.7056,"lat":31.1745},{"city":"Hoopstad","lon":25.9083,"lat":-27.8327},{"city":"Horizonte","lon":-72.5797,"lat":-8.9425},{"city":"Horka nad Moravou","lon":17.2079,"lat":49.6389},{"city":"Hornówek","lon":147.8339,"lat":-31.7022},{"city":"Hostos","lon":-70.0167,"lat":19.1833},{"city":"Houston","lon":-126.65,"lat":54.4},{"city":"Houxi","lon":119.2734,"lat":27.6944},{"city":"Houzhai","lon":120.0563,"lat":29.3742},{"city":"Hovorany","lon":16.9907,"lat":48.9551},{"city":"Hrabyne","lon":-84.1004,"lat":9.9016},{"city":"Hrebec","lon":121.2349,"lat":13.9258},{"city":"Huangbei","lon":118.5593,"lat":31.6191},{"city":"Huangcai","lon":112.1211,"lat":28.1567},{"city":"Huangcun","lon":118.3999,"lat":29.8803},{"city":"Huanggang","lon":118.7159,"lat":31.5644},{"city":"Huangjinbu","lon":116.8029,"lat":28.4792},{"city":"Huangshagang","lon":115.3676,"lat":28.3159},{"city":"Huangtan","lon":118.45,"lat":31.15},{"city":"Huangwei","lon":118.6405,"lat":29.698},{"city":"Huangyang","lon":116.35,"lat":31},{"city":"Huangzhou","lon":115.4931,"lat":28.7389},{"city":"Huapi","lon":-72.1333,"lat":-35.0333},{"city":"Huaquirca","lon":-72.8903,"lat":-14.3314},{"city":"Huaxian","lon":114.8088,"lat":29.3196},{"city":"Huayllo","lon":-73.2686,"lat":-14.1325},{"city":"Huazhou","lon":118.1543,"lat":31.9501},{"city":"Huddinge","lon":17.9833,"lat":59.2333},{"city":"Huifa","lon":128.65,"lat":45.8},{"city":"Huilong","lon":120.9702,"lat":30.1118},{"city":"Huimin","lon":120.9699,"lat":30.8391},{"city":"Hushan","lon":117.0034,"lat":29.9432},{"city":"Hveragerði","lon":-21.2,"lat":64},{"city":"Hvozdná","lon":99.9833,"lat":1.7167},{"city":"Hwawon","lon":69.6339,"lat":36.4879},{"city":"Ialoveni","lon":28.7778,"lat":46.9431},{"city":"Ibeto","lon":5.145,"lat":10.4854},{"city":"Ilangay","lon":126.0501,"lat":6.9128},{"city":"Ílion","lon":24.4556,"lat":53.1519},{"city":"Imeni Babushkina","lon":43.1285,"lat":59.7573},{"city":"Imus","lon":120.9367,"lat":14.4297},{"city":"Indianapolis","lon":-86.1581,"lat":39.7683},{"city":"Insiza","lon":29.2,"lat":-19.7833},{"city":"Ipubi","lon":-40.1167,"lat":-7.65},{"city":"Íquira","lon":118.6809,"lat":30.8234},{"city":"Irákleion","lon":110.7647,"lat":-6.7094},{"city":"Ishioka","lon":140.2667,"lat":36.1833},{"city":"Isiolo","lon":15.7553,"lat":-1.9822},{"city":"Itsandra","lon":43.2547,"lat":-11.6711},{"city":"Ivano-Frankove","lon":-65.0728,"lat":7.5172},{"city":"Jaboatão dos Guararapes","lon":-58.25,"lat":-30.8333},{"city":"Jagistay","lon":81.2239,"lat":43.5781},{"city":"Janikowo","lon":18.1087,"lat":52.7521},{"city":"Jargalant","lon":100.2167,"lat":47.5333},{"city":"Javanrud","lon":31.5458,"lat":53.6311},{"city":"Jawf al Maqbabah","lon":116.6964,"lat":25.9085},{"city":"Jendouba","lon":8.7802,"lat":36.5011},{"city":"Jenzan","lon":128.2975,"lat":36.2408},{"city":"Jetak","lon":110.6919,"lat":-6.5551},{"city":"Jetis","lon":110.2786,"lat":-7.6428},{"city":"Jianfeng","lon":120.2042,"lat":30.7254},{"city":"Jiangdulu","lon":125.3619,"lat":37.9347},{"city":"Jiangjiazui","lon":112.2211,"lat":28.8217},{"city":"Jianjiang","lon":116.0914,"lat":28.2794},{"city":"Jianli","lon":115.2306,"lat":28.6653},{"city":"Jianxincun","lon":115.7594,"lat":28.2886},{"city":"Jianyangping","lon":122.2787,"lat":10.7218},{"city":"Jiaogong","lon":104.6464,"lat":33.5655},{"city":"Jidd <U+1E28>afs","lon":71.3333,"lat":40.1833},{"city":"Jinhaihu","lon":-75.995,"lat":4.7972},{"city":"Jiuhua","lon":117.7917,"lat":30.5417},{"city":"Jiujie","lon":113.7645,"lat":33.5511},{"city":"Jizhou","lon":114.9795,"lat":27.1147},{"city":"Joaquín Suárez","lon":126.4083,"lat":44.0911},{"city":"Jocotenango","lon":-90.7436,"lat":14.5819},{"city":"Joyabaj","lon":-90.8061,"lat":14.995},{"city":"Józefów","lon":51.1054,"lat":56.5552},{"city":"Juarez","lon":-59.8065,"lat":-37.6719},{"city":"Jukui","lon":124.4491,"lat":9.9036},{"city":"Kadengan","lon":111.4203,"lat":-6.9952},{"city":"Kaélé","lon":2.0333,"lat":49},{"city":"Kájov","lon":10.4518,"lat":32.9297},{"city":"Kalashnikovo","lon":73.8745,"lat":57.0271},{"city":"Kalinkavichy","lon":29.3289,"lat":52.1333},{"city":"Kalumpang","lon":119.8917,"lat":-8.4642},{"city":"Kampungsusah","lon":5.5868,"lat":46.8222},{"city":"Kandava","lon":22.7667,"lat":57.0333},{"city":"Kansas City","lon":-84.0833,"lat":13.2},{"city":"Kapakabisa","lon":119.2998,"lat":-9.7219},{"city":"Karangbayat","lon":113.42,"lat":-8.104},{"city":"Karangsari","lon":115.5372,"lat":-8.2221},{"city":"Karanyowka","lon":46.1414,"lat":59.1139},{"city":"Karpogory","lon":44.4451,"lat":64.0019},{"city":"Kasangulu","lon":26.4333,"lat":-10.75},{"city":"Kaseda-shirakame","lon":12.1867,"lat":11.7443},{"city":"Káto Nevrokópi","lon":10.7667,"lat":8.6333},{"city":"Katori-shi","lon":12.1867,"lat":11.7443},{"city":"Ke’erlun","lon":20.0667,"lat":32.1167},{"city":"Kediren","lon":111.4054,"lat":-7.1956},{"city":"Keyi","lon":82.6347,"lat":42.1606},{"city":"Khandagayty","lon":92.05,"lat":50.7333},{"city":"Khandbari","lon":113.1579,"lat":31.9405},{"city":"Khanewal","lon":27.9,"lat":52.95},{"city":"Khomutovo","lon":104.4025,"lat":52.4658},{"city":"Kiiminki","lon":25.7333,"lat":65.1333},{"city":"Killam","lon":-111.85,"lat":52.7833},{"city":"Kinamayan","lon":125.6736,"lat":7.4994},{"city":"Kinatakutan","lon":122.4678,"lat":13.955},{"city":"Kipini","lon":40.5389,"lat":-2.5228},{"city":"Kiryandongo","lon":31.3167,"lat":1.65},{"city":"Kitcharao","lon":125.5731,"lat":9.455},{"city":"Klisura","lon":20.1894,"lat":40.3131},{"city":"Knoxville","lon":-87.7906,"lat":32.9922},{"city":"Koanara","lon":121.8521,"lat":-8.7485},{"city":"København","lon":119.6242,"lat":28.7817},{"city":"Kolaczyce","lon":-5.4352,"lat":43.4809},{"city":"Komes","lon":113.3703,"lat":-7.1003},{"city":"Kommunisticheskiy","lon":64.4819,"lat":61.6789},{"city":"Kon Dong","lon":123.3694,"lat":7.8191},{"city":"Konce","lon":121.7437,"lat":17.7104},{"city":"Kopashnovo","lon":23.4846,"lat":48.2197},{"city":"Koppies","lon":27.5742,"lat":-27.2418},{"city":"Korisós","lon":27.9,"lat":52.95},{"city":"Koronadal","lon":124.8469,"lat":6.5031},{"city":"Kosonsoy Shahri","lon":-77.9,"lat":-5.75},{"city":"Kota Kinabalu","lon":116.0724,"lat":5.9749},{"city":"Kotikawatta","lon":79.9167,"lat":6.9333},{"city":"Koudougou","lon":-2.3667,"lat":12.25},{"city":"Kozje","lon":15.5603,"lat":46.075},{"city":"Krajan","lon":110.7647,"lat":-6.7094},{"city":"Kralupy nad Vltavou","lon":14.3007,"lat":50.2395},{"city":"Krapina","lon":18.8269,"lat":42.3181},{"city":"Krueng Luak","lon":97.7578,"lat":2.8583},{"city":"Krylovskaya","lon":46.5833,"lat":61.1},{"city":"Kuala Lumpur","lon":101.7,"lat":3.1667},{"city":"Kumbo","lon":13.65,"lat":-7.25},{"city":"Kurashiki","lon":133,"lat":34.05},{"city":"Kurbnesh","lon":20.0836,"lat":41.7797},{"city":"Kurlovo","lon":51.1054,"lat":56.5552},{"city":"Kutno","lon":19.3617,"lat":52.229},{"city":"Kutum","lon":44.1718,"lat":54.6951},{"city":"Kuybyshev","lon":44.2906,"lat":41.0147},{"city":"Kyprínos","lon":44.1718,"lat":54.6951},{"city":"La Calera","lon":-65.2397,"lat":-28.4685},{"city":"La Cesira","lon":-62.9724,"lat":-33.9512},{"city":"La Concepcion","lon":-65.5667,"lat":-20.5},{"city":"La Mesa","lon":-75.8226,"lat":5.5777},{"city":"La Paz de Oriente","lon":-86.1333,"lat":11.8167},{"city":"La Plaine-Saint-Denis","lon":2.3638,"lat":48.9085},{"city":"La Vega","lon":-70.8833,"lat":-32.2167},{"city":"Lab","lon":97.15,"lat":33.2833},{"city":"Labrador","lon":-74.0637,"lat":10.1326},{"city":"Ladysmith","lon":147.5125,"lat":-35.2091},{"city":"Lagos da Beira","lon":-7.8287,"lat":40.3751},{"city":"Lallayug","lon":121.4397,"lat":17.7052},{"city":"Lamalera","lon":21.0067,"lat":55.3081},{"city":"Lamalewo","lon":122.65,"lat":10.9333},{"city":"Lamerd","lon":-38.5333,"lat":-12.5667},{"city":"Langgapayung","lon":99.9833,"lat":1.7167},{"city":"Langue","lon":-87.65,"lat":13.6167},{"city":"Lanyang","lon":109.6604,"lat":19.4614},{"city":"Laranjeiras","lon":-38.5333,"lat":-12.5667},{"city":"Larkana","lon":27.6,"lat":53.6667},{"city":"Larochette","lon":6.2211,"lat":49.7769},{"city":"Las Palomas","lon":-65.4741,"lat":-32.0637},{"city":"Launceston","lon":147.1347,"lat":-41.4388},{"city":"Laxou","lon":6.148,"lat":48.6831},{"city":"Lazaro Cardenas","lon":-102.0333,"lat":22.1833},{"city":"Lebowakgomo","lon":29.5,"lat":-24.2},{"city":"Leeuwarden","lon":-68.2667,"lat":12.2167},{"city":"Lenešice","lon":118.2558,"lat":30.9247},{"city":"Lengkong","lon":99.0373,"lat":31.5412},{"city":"Leninskoye","lon":74.6556,"lat":42.9603},{"city":"Lešná","lon":-25.6167,"lat":37.8},{"city":"Lhakangtang","lon":101.2,"lat":36.1333},{"city":"Lianghe","lon":117.234,"lat":29.9558},{"city":"Liaoyang","lon":118.3008,"lat":24.9869},{"city":"Libertad","lon":-58.6801,"lat":-34.6889},{"city":"Liebu","lon":111.9559,"lat":39.3256},{"city":"Lijiazui","lon":116.9954,"lat":28.5207},{"city":"Lingmen","lon":120.3152,"lat":27.7205},{"city":"Linköping","lon":20.3908,"lat":53.9877},{"city":"Linmansangan","lon":120.2836,"lat":15.8349},{"city":"Linqu","lon":119.6783,"lat":27.6911},{"city":"Linxi","lon":118.2961,"lat":29.6694},{"city":"Linxia Chengguanzhen","lon":111.4777,"lat":-6.7368},{"city":"Lipu","lon":119.8056,"lat":29.1049},{"city":"Liuduzhai","lon":110.935,"lat":27.3661},{"city":"Liuhe","lon":118.7273,"lat":29.9295},{"city":"Liuqu","lon":105.9291,"lat":35.1951},{"city":"Lixi","lon":117.4875,"lat":29.9836},{"city":"Llanera","lon":-5.8833,"lat":43.4333},{"city":"Lleida","lon":0.6333,"lat":41.6167},{"city":"Lokot’","lon":-76.8292,"lat":0.2703},{"city":"London","lon":-88.4333,"lat":17.9833},{"city":"Longchi","lon":118.7933,"lat":32.3081},{"city":"Longju","lon":119.1,"lat":34.3667},{"city":"Longping","lon":115.2352,"lat":26.3555},{"city":"Longquan","lon":116.8135,"lat":29.6401},{"city":"Longzhou","lon":115.0609,"lat":25.1121},{"city":"Lorena","lon":-66.4167,"lat":-10.6333},{"city":"Los Nogales","lon":-64.7022,"lat":-25.0967},{"city":"Loukísia","lon":40.5747,"lat":57.4588},{"city":"Lovrenc na Pohorju","lon":15.3931,"lat":46.5406},{"city":"Luba","lon":1.7833,"lat":8.3833},{"city":"Lubao","lon":25.75,"lat":-5.3667},{"city":"Lucé","lon":106.5231,"lat":-6.5986},{"city":"Luhans’ke","lon":-64.7994,"lat":-23.9408},{"city":"Lukunor","lon":75.8803,"lat":53.1314},{"city":"Lumbardhi","lon":20.0628,"lat":42.0536},{"city":"Lumbayan","lon":122.1045,"lat":11.2435},{"city":"Lumphat","lon":17.2167,"lat":59.2667},{"city":"Luna","lon":-69.15,"lat":-16.9167},{"city":"Lyambir’","lon":10.7667,"lat":8.6333},{"city":"Lyamino","lon":46.7915,"lat":58.7572},{"city":"Lýkeio","lon":5.5868,"lat":46.8222},{"city":"Lyon","lon":-61.7333,"lat":17.05},{"city":"Lyubar","lon":27.7592,"lat":49.9205},{"city":"M<U+1ECF> Cày","lon":-7.4929,"lat":31.535},{"city":"Maayong Tubig","lon":123.234,"lat":9.1464},{"city":"Macas","lon":-77.5333,"lat":1.2},{"city":"Magarao","lon":123.1869,"lat":13.6604},{"city":"Maiduguri","lon":13.1603,"lat":11.8464},{"city":"Maisí","lon":31.8933,"lat":-28.762},{"city":"Malanday","lon":120.9333,"lat":14.9167},{"city":"Malie","lon":14.9308,"lat":-0.7769},{"city":"Maliiha","lon":119.0195,"lat":-9.5528},{"city":"Malilipot","lon":123.7385,"lat":13.3188},{"city":"Malinaw","lon":125.1931,"lat":8.825},{"city":"Malonty","lon":14.5756,"lat":48.6861},{"city":"Mamonit","lon":120.3972,"lat":15.5859},{"city":"Manado","lon":124.8455,"lat":1.487},{"city":"Manaoag","lon":121.7608,"lat":17.7522},{"city":"Manglid","lon":106.5231,"lat":-6.5986},{"city":"Mankono","lon":-6.1897,"lat":8.0586},{"city":"Mao","lon":-41.75,"lat":-20.8167},{"city":"Maonon","lon":123.3707,"lat":13.0364},{"city":"Maoqitun","lon":120.5448,"lat":40.8056},{"city":"Mapalacsiao","lon":120.6508,"lat":15.4286},{"city":"Marcq-en-Barœul","lon":121.5503,"lat":15.7574},{"city":"Margasari","lon":115.0292,"lat":-8.3227},{"city":"Mariefred","lon":17.2167,"lat":59.2667},{"city":"Marinhais","lon":-8.7024,"lat":39.0473},{"city":"Maromme","lon":1.0237,"lat":49.4792},{"city":"Masape","lon":33.7,"lat":-1.6833},{"city":"Maskinongé","lon":117.3238,"lat":26.6981},{"city":"Matatiele","lon":28.8116,"lat":-30.3436},{"city":"Matina","lon":18.0322,"lat":44.4825},{"city":"Mauá","lon":-65.2397,"lat":-28.4685},{"city":"Mazha","lon":117.9228,"lat":29.7442},{"city":"Mbale","lon":25.75,"lat":3.4333},{"city":"Mbinga","lon":17.8333,"lat":-7.45},{"city":"Meaux","lon":2.7557,"lat":46.1599},{"city":"Medicine Hat","lon":-110.6833,"lat":50.0333},{"city":"Medvezh’yegorsk","lon":108.7136,"lat":-7.2402},{"city":"Medzhibozh","lon":27.4049,"lat":49.4375},{"city":"Meijiang","lon":119.8094,"lat":29.3668},{"city":"Meirinhas","lon":118.7056,"lat":31.1745},{"city":"Melipilla","lon":-71.2167,"lat":-33.7},{"city":"Mendenrejo","lon":111.445,"lat":-7.2383},{"city":"Mengcheng Chengguanzhen","lon":116.5661,"lat":33.2661},{"city":"Mengzhai","lon":119.6813,"lat":29.0423},{"city":"Miami","lon":1.5167,"lat":9.55},{"city":"Miastków Koscielny","lon":-66.8981,"lat":-4.8792},{"city":"Mikhaylovskoye","lon":48.8333,"lat":39.8333},{"city":"Milówka","lon":5.5868,"lat":46.8222},{"city":"Milton","lon":150.4361,"lat":-35.3164},{"city":"Milwaukee","lon":-77.2325,"lat":36.4053},{"city":"Mindupok","lon":124.4233,"lat":6.0906},{"city":"Mingelchaur","lon":47.0595,"lat":40.7639},{"city":"Minshan","lon":115.7488,"lat":29.5058},{"city":"Mizhhir’ya","lon":118.6002,"lat":31.4432},{"city":"Moa","lon":17.2,"lat":-8.0667},{"city":"Modimolle","lon":-12.6,"lat":8.4},{"city":"Mombetsu","lon":143.3525,"lat":44.3525},{"city":"Monkstown","lon":-8.3414,"lat":51.8506},{"city":"Mont-Saint-Aignan","lon":1.0936,"lat":49.4631},{"city":"Montbéliard","lon":-72.7833,"lat":-36.05},{"city":"Monteiro","lon":-60.7817,"lat":-5.8661},{"city":"Montelíbano","lon":118.5593,"lat":31.6191},{"city":"Montélimar","lon":27.9,"lat":52.95},{"city":"Morelos","lon":-102.3667,"lat":22.2417},{"city":"Morong","lon":120.1434,"lat":30.4902},{"city":"Morrelgonj","lon":31.4406,"lat":30.7542},{"city":"Morro Agudo","lon":-41.6,"lat":-7.2333},{"city":"Morropón","lon":122.4678,"lat":13.955},{"city":"Moss","lon":7.2167,"lat":47.5},{"city":"Mossel Bay","lon":22.146,"lat":-34.1831},{"city":"Mossoró","lon":118.4747,"lat":30.9918},{"city":"Moutsamoudou","lon":44.3964,"lat":-12.1628},{"city":"Mozhaysk","lon":36.0272,"lat":55.5019},{"city":"Mpigi","lon":32.7,"lat":0.6167},{"city":"Muang Sam Sip","lon":104.7256,"lat":15.5131},{"city":"Mufushan","lon":118.7715,"lat":32.1155},{"city":"Mugango","lon":33.7,"lat":-1.6833},{"city":"Mujães","lon":115.2306,"lat":28.6653},{"city":"Muldersdriseloop","lon":-7.5844,"lat":54.0697},{"city":"Müllendorf","lon":118.3857,"lat":29.8154},{"city":"Munggang","lon":109.8839,"lat":-7.3081},{"city":"Mungo","lon":14.7667,"lat":-9.05},{"city":"Munjungan","lon":111.5833,"lat":-8.3},{"city":"Murcia","lon":-68.0333,"lat":-11.2667},{"city":"Murtajih","lon":5.4667,"lat":35.4667},{"city":"Mutengene","lon":9.3081,"lat":4.0994},{"city":"Mutum Biyu","lon":10.7667,"lat":8.6333},{"city":"Muyaka","lon":26.5833,"lat":-10.2667},{"city":"Myski","lon":81.5404,"lat":53.6924},{"city":"Nagareyama","lon":139.9333,"lat":35.8833},{"city":"Nagcarlan","lon":121.4165,"lat":14.1364},{"city":"Nagorsk","lon":50.8078,"lat":59.3172},{"city":"Naj‘ <U+1E28>ammadi","lon":118.3303,"lat":31.5559},{"city":"Najin","lon":122.15,"lat":45.7833},{"city":"Nakhabino","lon":37.1779,"lat":55.8485},{"city":"Namangan","lon":71.6725,"lat":40.9953},{"city":"Nangkasari","lon":106.6539,"lat":-6.6592},{"city":"Nankang","lon":116.9883,"lat":31.3736},{"city":"Nanmu","lon":120.9564,"lat":27.9997},{"city":"Nantes","lon":-51.25,"lat":-22.5167},{"city":"Nanyuan","lon":117.4167,"lat":30.1167},{"city":"Ndofane","lon":-16.7833,"lat":14.25},{"city":"Néa Róda","lon":139.9333,"lat":35.8833},{"city":"Neochóri","lon":106.4467,"lat":-6.3711},{"city":"Nerekhta","lon":40.5747,"lat":57.4588},{"city":"Neringa","lon":21.0067,"lat":55.3081},{"city":"Netrakona","lon":90.7167,"lat":24.8833},{"city":"Netvorice","lon":116.3801,"lat":26.9855},{"city":"Nevers","lon":3.1571,"lat":46.9912},{"city":"Newmarket on Fergus","lon":-8.8956,"lat":52.76},{"city":"Nggesa","lon":121.8186,"lat":-8.6028},{"city":"Nice","lon":20.5681,"lat":40.815},{"city":"Nicoya","lon":-74.3333,"lat":10.65},{"city":"Nida","lon":31.7167,"lat":26.6},{"city":"Niedzwiada","lon":-38.5333,"lat":-12.5667},{"city":"Ningchegu","lon":117.6625,"lat":39.1589},{"city":"Ningmute","lon":123.1869,"lat":13.6604},{"city":"Niort","lon":2.0025,"lat":42.8013},{"city":"Nnewi","lon":6.9148,"lat":6.0199},{"city":"Non Sung","lon":102.2569,"lat":15.1801},{"city":"Noormarkku","lon":21.8667,"lat":61.5833},{"city":"Norakert","lon":44.3467,"lat":40.1922},{"city":"Norton","lon":-79.4,"lat":-2.1667},{"city":"Norzagaray","lon":121.0493,"lat":14.9109},{"city":"Nouakchott","lon":-15.9753,"lat":18.0864},{"city":"Novallas","lon":-1.6949,"lat":41.9468},{"city":"Novohrad-Volyns’kyy","lon":115.2306,"lat":28.6653},{"city":"Novokhopërsk","lon":-35.75,"lat":-9.65},{"city":"Novomoskovs’k","lon":116.8135,"lat":29.6401},{"city":"Novonikol’sk","lon":-12.6,"lat":8.4},{"city":"Novotroitsk","lon":82.8894,"lat":49.8272},{"city":"Nowa Góra","lon":93.9,"lat":31.1},{"city":"Nueva Manoa","lon":-65.4,"lat":-9.7},{"city":"Nunleu","lon":124.6639,"lat":-9.3836},{"city":"Nusajaya","lon":108.9214,"lat":-7.6256},{"city":"Nyahururu","lon":36.3667,"lat":0.0333},{"city":"Nyangao","lon":39.2833,"lat":-10.3333},{"city":"Obanazawa","lon":140.4019,"lat":38.6033},{"city":"Obispos","lon":-70.1028,"lat":8.6097},{"city":"Obudovac","lon":18.6122,"lat":44.965},{"city":"Ocoyo","lon":-75.0219,"lat":-14.0081},{"city":"Ocumare de la Costa","lon":-67.7681,"lat":10.4533},{"city":"Oesapa","lon":123.65,"lat":-10.15},{"city":"Ognevka","lon":83.0289,"lat":49.6703},{"city":"Oji River","lon":7.261,"lat":6.2611},{"city":"Okhansk","lon":55.3877,"lat":57.7185},{"city":"Olafulihaa","lon":102.0048,"lat":12.6214},{"city":"Ongjin","lon":125.3619,"lat":37.9347},{"city":"Oni","lon":43.4425,"lat":42.5794},{"city":"Opinogóra Górna","lon":22.5025,"lat":41.1392},{"city":"Orléans","lon":18.0065,"lat":50.3714},{"city":"Osasco","lon":-46.7833,"lat":-23.5667},{"city":"Osieczany","lon":19.9813,"lat":49.8422},{"city":"Oslo","lon":10.75,"lat":59.9167},{"city":"Ossora","lon":-3.1833,"lat":10.1167},{"city":"Ostrožac","lon":26.3286,"lat":-30.9977},{"city":"Ouidah","lon":2.0833,"lat":6.3667},{"city":"Outeiro Seco","lon":-7.4493,"lat":41.7751},{"city":"Ouyang","lon":113.3544,"lat":33.5194},{"city":"Owczarnia","lon":22.2014,"lat":50.8845},{"city":"Pacatuba","lon":-61.0783,"lat":-2.3083},{"city":"Padangulaktanding","lon":102.8,"lat":-3.3667},{"city":"Pajala","lon":25.095,"lat":60.4811},{"city":"Pajoreja","lon":121.1956,"lat":-8.8449},{"city":"Palencia","lon":-73.3622,"lat":6.3841},{"city":"Palestina","lon":16.7348,"lat":-11.2737},{"city":"Panaytayon","lon":123.9833,"lat":9.95},{"city":"Pangpang","lon":121.9883,"lat":10.8088},{"city":"Pangushan","lon":115.4223,"lat":25.6428},{"city":"Panjakent","lon":67.615,"lat":39.5031},{"city":"Papetoai","lon":-149.8667,"lat":-17.4833},{"city":"Pappádos","lon":21.8667,"lat":61.5833},{"city":"Paracin","lon":-40.6167,"lat":-19.5333},{"city":"Paraná","lon":115.5372,"lat":-8.2221},{"city":"Parchal","lon":-8.517,"lat":37.1383},{"city":"Pardelhas","lon":-8.6516,"lat":40.7474},{"city":"Paris 09","lon":21.0067,"lat":55.3081},{"city":"Paris La Défense","lon":64.4819,"lat":61.6789},{"city":"Pasirmadang","lon":106.4467,"lat":-6.3711},{"city":"Pasirsongket Dua","lon":106.5946,"lat":-7.3106},{"city":"Pavino","lon":46.1414,"lat":59.1139},{"city":"Pawa","lon":27.7,"lat":2.5333},{"city":"Pedra","lon":13.8619,"lat":-11.2105},{"city":"Peimei","lon":117.1037,"lat":28.6395},{"city":"Pekuwon","lon":111.1608,"lat":-6.7238},{"city":"Pendiqing","lon":112.0038,"lat":39.9419},{"city":"Pensacola","lon":-86.6,"lat":16.2833},{"city":"Perdões","lon":43.0636,"lat":56.1311},{"city":"Perené","lon":5.3572,"lat":51.9586},{"city":"Pervoural’sk","lon":12.45,"lat":43.9},{"city":"Perzów","lon":152.3,"lat":-32.3},{"city":"Petropavlovka","lon":48.5962,"lat":41.4079},{"city":"Pewel Wielka","lon":19.3786,"lat":49.6781},{"city":"Pexiligais","lon":-67.7681,"lat":10.4533},{"city":"Phra Yuen","lon":102.6518,"lat":16.3293},{"city":"Piaocao","lon":6.2211,"lat":49.7769},{"city":"Pico da Pedra","lon":-25.6167,"lat":37.8},{"city":"Pilaya","lon":-64.75,"lat":-20.95},{"city":"Pimian","lon":111.8475,"lat":22.3442},{"city":"Pinheiros","lon":-45.0833,"lat":-2.5167},{"city":"Pir jo Goth","lon":-67.7681,"lat":10.4533},{"city":"Piraí","lon":-58.1781,"lat":-26.1775},{"city":"Piraí do Sul","lon":64.4819,"lat":61.6789},{"city":"Piritiba","lon":-40.5667,"lat":-11.7333},{"city":"Platagata","lon":123.1567,"lat":11.303},{"city":"Pleszew","lon":17.7829,"lat":51.8954},{"city":"Pochuta","lon":-91.0833,"lat":14.55},{"city":"Podgorica","lon":16.2064,"lat":44.5783},{"city":"Pogranichnyy","lon":23.9667,"lat":53.1333},{"city":"Polyarnyye Zori","lon":32.4981,"lat":67.3661},{"city":"Ponikiew","lon":19.4545,"lat":49.8287},{"city":"Popova","lon":21.0867,"lat":42.8781},{"city":"Port-au-Prince","lon":-72.335,"lat":18.5392},{"city":"Porto Martins","lon":-48.3667,"lat":-22.6667},{"city":"Poyang","lon":116.3801,"lat":26.9855},{"city":"Prachuap Khiri Khan","lon":99.7967,"lat":11.8086},{"city":"Preobrazhenka","lon":71.35,"lat":50.9},{"city":"Prokuplje","lon":21.5881,"lat":43.2342},{"city":"Pszczyna","lon":18.9473,"lat":49.9765},{"city":"Pueblo Viejo","lon":-62.8503,"lat":-32.8481},{"city":"Puerto Galera","lon":120.9548,"lat":13.5006},{"city":"Puerto Varas","lon":-72.9854,"lat":-41.3195},{"city":"Puksoozero","lon":40.6066,"lat":62.5903},{"city":"Pupiales","lon":-77.6403,"lat":0.8714},{"city":"Puyehue","lon":-72.3167,"lat":-40.65},{"city":"Pyatigorsk","lon":29.3333,"lat":55.0833},{"city":"Pylaía","lon":17.2,"lat":-8.0667},{"city":"Qabaqçöl","lon":118.45,"lat":31.15},{"city":"Qalqilyah","lon":26.5333,"lat":65.9167},{"city":"Qaraçuxur","lon":115.0292,"lat":-8.3227},{"city":"Qianguo","lon":124.8568,"lat":45.1171},{"city":"Qirah","lon":-42.8167,"lat":-5.1},{"city":"Qiujima","lon":101.8439,"lat":33.445},{"city":"Qu<U+1EAD>n Sa´u","lon":-8.517,"lat":37.1383},{"city":"Quangang","lon":115.5966,"lat":28.1559},{"city":"Quatre Bornes","lon":57.4719,"lat":-20.2644},{"city":"Québec","lon":105.3922,"lat":15.2008},{"city":"Quebracho","lon":-53.9667,"lat":-31.3667},{"city":"Queimados","lon":-40.0833,"lat":-13.7833},{"city":"Quimper","lon":-4.1,"lat":48},{"city":"Qvareli","lon":45.8017,"lat":41.9514},{"city":"R S","lon":116.8321,"lat":29.8218},{"city":"Rabat-e Sangi-ye Pa’in","lon":-64.4584,"lat":-24.9171},{"city":"Raca","lon":21.8667,"lat":61.5833},{"city":"Ramanavichy","lon":-52.8667,"lat":68.7167},{"city":"Rammun","lon":64.4819,"lat":61.6789},{"city":"Ranchuelo","lon":-80.9167,"lat":22.3333},{"city":"Ranua","lon":26.5333,"lat":65.9167},{"city":"Rechitsy","lon":31.5458,"lat":53.6311},{"city":"Regimin","lon":20.5543,"lat":52.9414},{"city":"Rego","lon":-71.65,"lat":18.8667},{"city":"Reiko","lon":126.5094,"lat":35.275},{"city":"Reni","lon":96.702,"lat":29.002},{"city":"Rennes","lon":-1.6743,"lat":48.112},{"city":"Replot","lon":21.4167,"lat":63.25},{"city":"Riachão do Jacuípe","lon":25.9083,"lat":-27.8327},{"city":"Ribeiro","lon":-41.3333,"lat":-12.05},{"city":"Ribnica na Pohorju","lon":15.2728,"lat":46.535},{"city":"Rijeka","lon":18.4869,"lat":43.6822},{"city":"Rijswijk","lon":5.3572,"lat":51.9586},{"city":"Río Colorado","lon":106.4222,"lat":-6.2819},{"city":"Rio das Ostras","lon":-41.95,"lat":-22.5333},{"city":"Rionegro","lon":-75.3737,"lat":6.1551},{"city":"Rivesaltes","lon":2.8724,"lat":42.7694},{"city":"Rodatychi","lon":23.5334,"lat":49.7986},{"city":"Rodionovo-Nesvetaiskoye","lon":39.7,"lat":47.6},{"city":"Rodotópi","lon":28.9333,"lat":-20.3},{"city":"Rohia","lon":40.3417,"lat":-12.3125},{"city":"Romba","lon":121.2961,"lat":-8.9039},{"city":"Rongxi","lon":118.264,"lat":29.9112},{"city":"Rossosh’","lon":38.8269,"lat":49.9639},{"city":"Rudolfov","lon":14.5422,"lat":48.9896},{"city":"Rustaq","lon":20.0408,"lat":39.9183},{"city":"Ruukki","lon":25.1,"lat":64.6667},{"city":"Saatli","lon":83.1533,"lat":49.4858},{"city":"Sabanagrande","lon":-74.7553,"lat":10.7896},{"city":"Sacramento","lon":-67.8,"lat":-16.2333},{"city":"Sadabe","lon":47.7,"lat":-18.6333},{"city":"Sagaing","lon":95.9833,"lat":21.8667},{"city":"Saint-Denis","lon":4.0167,"lat":50.4833},{"city":"Saint-Germain-en-Laye","lon":2.0867,"lat":48.9042},{"city":"Saint-Laurent-du-Var","lon":7.1761,"lat":43.671},{"city":"Saint-Pierre","lon":4.1833,"lat":50.3167},{"city":"Saint-Sauveur","lon":3.6,"lat":50.7},{"city":"Saint-Tite","lon":-72.5667,"lat":46.7167},{"city":"Saint Croix","lon":-61.3667,"lat":10.25},{"city":"Saint Paul","lon":-111.2833,"lat":53.9833},{"city":"Sajan","lon":20.0408,"lat":39.9183},{"city":"Sakon Nakhon","lon":104.1473,"lat":17.1612},{"city":"Salavan","lon":106.4167,"lat":15.7167},{"city":"Samobor","lon":18.5969,"lat":43.1203},{"city":"San Bernardino","lon":-64.0113,"lat":-30.8138},{"city":"San Carlos","lon":-64.8124,"lat":-29.6011},{"city":"San Celestio","lon":121.2349,"lat":13.9258},{"city":"San Diego","lon":-58.6558,"lat":-28.751},{"city":"San Enrique","lon":-60.3533,"lat":-35.7743},{"city":"San Felipe","lon":-64.9667,"lat":-22.2667},{"city":"San Fernando","lon":-58.5574,"lat":-34.442},{"city":"San Francisco","lon":-65.4267,"lat":-28.9631},{"city":"San Guillermo","lon":-61.9179,"lat":-30.3598},{"city":"San Jose","lon":-68.2333,"lat":12.1167},{"city":"San José","lon":106.4167,"lat":15.7167},{"city":"San José del Guaviare","lon":127.2833,"lat":50.55},{"city":"San Marcelino","lon":-76.8292,"lat":0.2703},{"city":"San Martín","lon":-64.4584,"lat":-24.9171},{"city":"San Ramon","lon":-58.25,"lat":-30.8333},{"city":"San Vicente","lon":-58.3762,"lat":-34.9826},{"city":"Sandia","lon":-10.4981,"lat":8.4175},{"city":"Sangumata","lon":119.5606,"lat":-9.4033},{"city":"Sanhui","lon":108.2133,"lat":28.6203},{"city":"Sanli","lon":118.2548,"lat":30.7754},{"city":"Sanshan","lon":118.2299,"lat":31.2124},{"city":"Santa Clara","lon":-68.2167,"lat":12.1333},{"city":"Santa Rosa","lon":-68.8833,"lat":12.1167},{"city":"Santander de Quilichao","lon":-76.4849,"lat":3.0095},{"city":"Santo Ângelo","lon":114.0487,"lat":-7.7772},{"city":"Santo Tomé","lon":79.9167,"lat":6.9333},{"city":"Sanxi","lon":118.4278,"lat":30.3777},{"city":"São Bartolomeu","lon":20.3242,"lat":41.7358},{"city":"São Caetano do Sul","lon":104.7256,"lat":15.5131},{"city":"São Joaquim da Barra","lon":-1.6743,"lat":48.112},{"city":"São Paulo","lon":49.4667,"lat":-13.7667},{"city":"Sarandi","lon":-58.3512,"lat":-34.6832},{"city":"Sarapul","lon":135.9486,"lat":48.8569},{"city":"Sariwon","lon":116.6576,"lat":28.6991},{"city":"Sartrouville","lon":2.1917,"lat":48.9482},{"city":"Saynshand","lon":110.15,"lat":44.8667},{"city":"Sayyan","lon":33.3665,"lat":45.2009},{"city":"Scinawa","lon":120.9702,"lat":30.1118},{"city":"Sedayulawas","lon":112.2726,"lat":-6.88},{"city":"Seixo Alvo","lon":-8.5216,"lat":41.0653},{"city":"Sendang","lon":110.8798,"lat":-6.5316},{"city":"Seogeom-ri","lon":118.4829,"lat":31.5598},{"city":"Seongnam-si","lon":-99.2833,"lat":53.1667},{"city":"Seren Barat","lon":111.3313,"lat":-6.7591},{"city":"Seria","lon":114.3167,"lat":4.6167},{"city":"Sernancelhe","lon":-7.4934,"lat":40.8987},{"city":"Setanggor","lon":116.4812,"lat":-8.6537},{"city":"Severnyy","lon":61.5833,"lat":51.0333},{"city":"Shadili","lon":122.0391,"lat":30.1752},{"city":"Shah Alam","lon":101.5333,"lat":3.0833},{"city":"Shahr-e Safa","lon":85.0781,"lat":52.3044},{"city":"Shambu","lon":37.1,"lat":9.5667},{"city":"Shancheng","lon":116.769,"lat":27.9394},{"city":"Shang Boingor","lon":99.5833,"lat":32.9},{"city":"Shanxiahu","lon":120.353,"lat":29.8567},{"city":"Shaowu","lon":119.4315,"lat":29.3654},{"city":"Shatki","lon":29.2167,"lat":54.4167},{"city":"Shazi","lon":113.1579,"lat":31.9405},{"city":"Sheli","lon":115.5306,"lat":27.9053},{"city":"Shevchenkove","lon":23.9247,"lat":48.9005},{"city":"Shinjo","lon":95.9833,"lat":21.8667},{"city":"Shiqiao","lon":118.6002,"lat":31.4432},{"city":"Shuanghekou","lon":117.6167,"lat":29.8167},{"city":"Shymkent","lon":69.6,"lat":42.3},{"city":"Sidi Slimane","lon":5.4667,"lat":35.4667},{"city":"Siding","lon":109.5369,"lat":25.0475},{"city":"Sidirókastro","lon":118.7196,"lat":29.8204},{"city":"Siepraw","lon":19.9609,"lat":49.9075},{"city":"Siewierz","lon":19.2335,"lat":50.4735},{"city":"Simod","lon":125.3408,"lat":7.4758},{"city":"Simões Filho","lon":110.4093,"lat":29.1372},{"city":"Sinarbakti","lon":106.6169,"lat":-6.5883},{"city":"Singida","lon":33.2833,"lat":-3.8333},{"city":"Sirindhorn","lon":105.3922,"lat":15.2008},{"city":"Široki Brijeg","lon":13.0333,"lat":58.0833},{"city":"Skoura","lon":21.65,"lat":37.9},{"city":"Slavuta","lon":23.6833,"lat":44.7},{"city":"Smolenskoye","lon":85.0781,"lat":52.3044},{"city":"Sobhadero","lon":20.6897,"lat":42.9144},{"city":"Soisy-sous-Montmorency","lon":2.3016,"lat":48.9881},{"city":"Soljani","lon":18.9703,"lat":44.9503},{"city":"Solnechnogorsk","lon":36.9833,"lat":56.1833},{"city":"Sondo","lon":28.1667,"lat":2.3167},{"city":"Sophia Antipolis","lon":39.9413,"lat":51.8404},{"city":"Sørvágur","lon":-8.9001,"lat":31.1405},{"city":"Sousse","lon":40.96,"lat":34.5253},{"city":"Sovetskiy","lon":71.3333,"lat":40.1833},{"city":"Spárti","lon":-21.2,"lat":64},{"city":"Srbica","lon":21.0311,"lat":41.5881},{"city":"Stanišic","lon":48.8333,"lat":39.8333},{"city":"Staporków","lon":125.1931,"lat":8.825},{"city":"Staryye Atagi","lon":45.7204,"lat":43.0865},{"city":"Stavanger","lon":5.75,"lat":58.9667},{"city":"Steborice","lon":101.2,"lat":36.1333},{"city":"Štitar","lon":-90.8061,"lat":14.995},{"city":"Stockholm","lon":13.75,"lat":61.8831},{"city":"Stoszowice","lon":16.7389,"lat":50.6},{"city":"Strasbourg","lon":5.3833,"lat":50.25},{"city":"Suan Luang","lon":99.7833,"lat":15.9036},{"city":"Sukamaju Kidul","lon":108.1867,"lat":-7.2831},{"city":"Sukamantri Satu","lon":107.1628,"lat":-6.2406},{"city":"Sukatani","lon":106.7103,"lat":-6.1144},{"city":"Suklayin","lon":121.5503,"lat":15.7574},{"city":"Sulmierzyce","lon":19.2111,"lat":51.1867},{"city":"Suloszowa","lon":99.5833,"lat":32.9},{"city":"Sumberagung","lon":111.4777,"lat":-6.7368},{"city":"Sumberingin Kulon","lon":111.9898,"lat":-8.1272},{"city":"Sumberpucung","lon":112.4732,"lat":-8.1575},{"city":"Sumberrojokrajan","lon":112.6227,"lat":-8.2441},{"city":"Sumbuya","lon":-12.6,"lat":8.4},{"city":"Sumusta as Sultani","lon":-72.5667,"lat":46.7167},{"city":"Sunjia","lon":118.6463,"lat":30.8662},{"city":"Suntar","lon":117.6319,"lat":62.1444},{"city":"Surin","lon":0.3721,"lat":46.0775},{"city":"Synya","lon":58.0387,"lat":65.3718},{"city":"Tabaga","lon":130.9564,"lat":61.6672},{"city":"Tabia","lon":-0.7375,"lat":35.0186},{"city":"Tabwakea Village","lon":-72.335,"lat":18.5392},{"city":"Tadmur","lon":38.2833,"lat":34.55},{"city":"Tadrart","lon":5.7667,"lat":36.4},{"city":"Taganskiy","lon":37.6667,"lat":55.7333},{"city":"Tai’an","lon":-5.4352,"lat":43.4809},{"city":"Taifu","lon":119.7529,"lat":30.9429},{"city":"Taiping","lon":118.4829,"lat":31.5598},{"city":"Taipingxu","lon":115.3372,"lat":26.5139},{"city":"Taipingzhuang","lon":120.825,"lat":32.4528},{"city":"Takehara","lon":130.6167,"lat":33.7333},{"city":"Takeo","lon":130.0167,"lat":33.2},{"city":"Takikawa","lon":141.9064,"lat":43.5528},{"city":"Taklale","lon":11.8167,"lat":3.9167},{"city":"Tambakmerak","lon":111.6638,"lat":-7.1155},{"city":"Tambo","lon":23.5352,"lat":-11.0229},{"city":"Tambobamba","lon":-72.1833,"lat":-13.9497},{"city":"Tan-Tan","lon":-11.1032,"lat":28.438},{"city":"Tân K<U+1EF3>","lon":32.2833,"lat":-28.0333},{"city":"Tangwu","lon":118.3857,"lat":29.8154},{"city":"Taoling","lon":116.8321,"lat":29.8218},{"city":"Tapon","lon":3.4004,"lat":45.2234},{"city":"Taraju","lon":98.3333,"lat":2.5833},{"city":"Tarragona","lon":-62.55,"lat":-34.1833},{"city":"Tartaro","lon":121.0397,"lat":15.1664},{"city":"Tataouine","lon":10.4518,"lat":32.9297},{"city":"Tawan tawan","lon":125.3728,"lat":7.1692},{"city":"Tebon","lon":111.0221,"lat":-6.7706},{"city":"Tegalsari","lon":114.6011,"lat":-8.1438},{"city":"Tehetu","lon":-40.2667,"lat":-19.8167},{"city":"Temara","lon":35.4153,"lat":32.5908},{"city":"Tenjolaya","lon":106.7006,"lat":-6.6611},{"city":"Teresina","lon":-42.8167,"lat":-5.0833},{"city":"Teroual","lon":-5.2733,"lat":34.6745},{"city":"Terpinnya","lon":35.4197,"lat":46.9697},{"city":"Th<U+1ECB> Tr<U+1EA5>n M<U+1EF9> L<U+1ED9>c","lon":48.8333,"lat":39.8333},{"city":"Th<U+1ECB> Tr<U+1EA5>n Ng<U+1EA3>i Giao","lon":32.2833,"lat":-28.0333},{"city":"Th<U+1ECB> Tr<U+1EA5>n Nho Quan","lon":18.4456,"lat":44.2425},{"city":"Th<U+1ECB> Tr<U+1EA5>n Quan Hóa","lon":-8.4908,"lat":31.1078},{"city":"Tha Mai","lon":102.0048,"lat":12.6214},{"city":"Tiantang","lon":116.35,"lat":30.85},{"city":"Tiedonglu","lon":118.4829,"lat":31.5598},{"city":"Tigbinan","lon":122.4692,"lat":14.1865},{"city":"Timon","lon":-42.8167,"lat":-5.1},{"city":"Timurlorong","lon":113.46,"lat":-7.0277},{"city":"Tiouli","lon":-8.9001,"lat":31.1405},{"city":"Tiron","lon":111.5416,"lat":-7.5836},{"city":"Tiwi","lon":39.5833,"lat":-4.2333},{"city":"Tokonou","lon":-9.7833,"lat":9.65},{"city":"Tongyangdao","lon":109.9699,"lat":41.7703},{"city":"Tonshayevo","lon":47.0126,"lat":57.736},{"city":"Tosno","lon":-65.3182,"lat":-30.9194},{"city":"Totolan","lon":100.1,"lat":2.0333},{"city":"Touama","lon":-7.4929,"lat":31.535},{"city":"Toulouse","lon":5.5868,"lat":46.8222},{"city":"Tranås","lon":2.0333,"lat":49},{"city":"Trelleborg","lon":13.1667,"lat":55.3667},{"city":"Troyes","lon":4.0852,"lat":48.3007},{"city":"Tsiatsan","lon":44.2667,"lat":40.1869},{"city":"Tsimkavichy","lon":116.6964,"lat":25.9085},{"city":"Tsuen Wan","lon":114.1,"lat":22.3667},{"city":"Tuateta","lon":-65.2397,"lat":-28.4685},{"city":"Tucepi","lon":42.5458,"lat":9.2319},{"city":"Tuchengzi","lon":126.4083,"lat":44.0911},{"city":"Tumba","lon":16.3414,"lat":-11.2365},{"city":"Tundagan","lon":109.26,"lat":-7.1969},{"city":"Tungor","lon":142.9564,"lat":53.3808},{"city":"Tuochuan","lon":115.6606,"lat":28.1531},{"city":"Tuojiang","lon":111.5717,"lat":25.1867},{"city":"Ulaan-Ereg","lon":109.75,"lat":46.9},{"city":"Ulaandel","lon":113.6,"lat":46.3667},{"city":"Umm Ruwaba","lon":31.2167,"lat":12.9},{"city":"Uralets","lon":59.0833,"lat":52.8833},{"city":"Urdaneta","lon":-79.2,"lat":-3.6},{"city":"Urechcha","lon":27.9,"lat":52.95},{"city":"Usa River","lon":36.85,"lat":-3.3667},{"city":"Ushuaia","lon":-68.3,"lat":-54.8},{"city":"Usquil","lon":-78.4167,"lat":-7.8167},{"city":"Utsjoki","lon":27,"lat":69.8833},{"city":"Vakhtan","lon":46.6889,"lat":57.9659},{"city":"Vale Covo","lon":-8.1248,"lat":37.1334},{"city":"Valledupar","lon":-73.2532,"lat":10.4631},{"city":"Vân Tùng","lon":120.9699,"lat":30.8391},{"city":"Vanderbijlpark","lon":27.8379,"lat":-26.7117},{"city":"Vanves","lon":2.2903,"lat":48.8235},{"city":"Varaždin","lon":18.4456,"lat":44.2425},{"city":"Vári","lon":99.9833,"lat":1.7167},{"city":"Västra Frölunda","lon":116.6964,"lat":25.9085},{"city":"Vatutino","lon":38.3082,"lat":50.2857},{"city":"Vawkavysk","lon":24.4556,"lat":53.1519},{"city":"Veliki Preslav","lon":26.8167,"lat":43.1667},{"city":"Velyka Mykhaylivka","lon":29.8575,"lat":47.0797},{"city":"Vendas de Galizes","lon":-7.891,"lat":40.315},{"city":"Verkhniy Dashkesan","lon":46.0714,"lat":40.4923},{"city":"Verkhnyaya Belka","lon":24.3033,"lat":49.8158},{"city":"Verkhnyaya Khava","lon":39.9413,"lat":51.8404},{"city":"Verona","lon":149.8167,"lat":-36.4667},{"city":"Verovice","lon":14.3667,"lat":4.4333},{"city":"Veshnyaki","lon":37.8195,"lat":55.7239},{"city":"Veverská Bítýška","lon":99.0373,"lat":31.5412},{"city":"Vidin","lon":26.3833,"lat":42.3167},{"city":"Vidzy","lon":26.6333,"lat":55.4},{"city":"Vigan","lon":125.5489,"lat":11.2817},{"city":"Vilani","lon":-76.4849,"lat":3.0095},{"city":"Villa Cañás","lon":123.2818,"lat":13.4328},{"city":"Villaguay","lon":-59.0269,"lat":-31.8653},{"city":"Villaviciosa","lon":-5.4352,"lat":43.4809},{"city":"Villeta","lon":-73.9783,"lat":5.7908},{"city":"Vilppula","lon":26.6667,"lat":60.8333},{"city":"Vincennes","lon":2.4377,"lat":48.8486},{"city":"Vinha","lon":40.5389,"lat":-2.5228},{"city":"Vista Hermosa","lon":-75.7579,"lat":1.2963},{"city":"Vítkov","lon":122.15,"lat":45.7833},{"city":"Vitória da Conquista","lon":112.0038,"lat":39.9419},{"city":"Voskehask","lon":43.7758,"lat":40.7383},{"city":"Vredendal","lon":18.35,"lat":-28.7667},{"city":"Vukojevci","lon":18.15,"lat":45.1333},{"city":"Vysehrad","lon":118.4262,"lat":31.574},{"city":"Wailolung","lon":119.5816,"lat":-9.5875},{"city":"Waishan","lon":120.6015,"lat":30.3346},{"city":"Wakefield","lon":138.1543,"lat":-34.184},{"city":"Walce","lon":18.0065,"lat":50.3714},{"city":"Wang Chan","lon":101.523,"lat":12.9365},{"city":"Wangmo","lon":105.6764,"lat":33.8507},{"city":"Warren","lon":147.8339,"lat":-31.7022},{"city":"Washington","lon":-64.688,"lat":-33.8771},{"city":"Wates","lon":115.5795,"lat":-8.3596},{"city":"Weifang","lon":116.4482,"lat":27.3196},{"city":"Wenci","lon":116.6745,"lat":23.7608},{"city":"Wenquan","lon":121.3267,"lat":29.3889},{"city":"Wien","lon":-92.7842,"lat":39.6608},{"city":"Wilkowice","lon":17.0925,"lat":50.9495},{"city":"Witzenhausen","lon":9.8667,"lat":51.3333},{"city":"Wloclawek","lon":111.3313,"lat":-6.7591},{"city":"Woken","lon":130.5167,"lat":46},{"city":"Wonotirto","lon":109.9714,"lat":-7.0931},{"city":"Wootton","lon":152.3,"lat":-32.3},{"city":"Wu’erbu Baolige","lon":42.3739,"lat":11.1086},{"city":"Wudabao","lon":119.1713,"lat":27.608},{"city":"Wuma","lon":24.6333,"lat":-4.5},{"city":"Wupu","lon":116.7386,"lat":33.7381},{"city":"Würzburg","lon":120.3666,"lat":16.3228},{"city":"Wysoka Strzyzowska","lon":31.4406,"lat":30.7542},{"city":"Wyszków","lon":117.2,"lat":31.6833},{"city":"Xaçmaz","lon":24.8667,"lat":42.0167},{"city":"Xamba","lon":96.306,"lat":31.706},{"city":"Xiagong","lon":119.4971,"lat":29.1644},{"city":"Xiangdian","lon":120.8537,"lat":30.8265},{"city":"Xianning","lon":108.2519,"lat":34.4881},{"city":"Xianshui","lon":115.6822,"lat":26.1606},{"city":"Xiaocun","lon":118.5825,"lat":31.3569},{"city":"Xiaoyi","lon":112.9714,"lat":34.76},{"city":"Xiapu","lon":118.5242,"lat":29.9823},{"city":"Xiashuitou","lon":112.0819,"lat":39.5277},{"city":"Xihe","lon":118.4747,"lat":30.9918},{"city":"Xilian","lon":118.359,"lat":30.9644},{"city":"Xiling","lon":118.2364,"lat":30.7727},{"city":"Xincheng","lon":120.6086,"lat":27.4792},{"city":"Xinghuo","lon":120.1744,"lat":30.9026},{"city":"Xinhe","lon":118.0133,"lat":31.1424},{"city":"Xinkaikou","lon":118.9167,"lat":39.2667},{"city":"Xinpu","lon":119.9317,"lat":27.6284},{"city":"Xinzhou","lon":118.4262,"lat":31.574},{"city":"Xiongchi","lon":105.3303,"lat":33.4057},{"city":"Xiongzhang","lon":89.302,"lat":28.502},{"city":"Xiushan","lon":118.55,"lat":31.7047},{"city":"Xiuying","lon":110.2692,"lat":20.0192},{"city":"Yaguaraparo","lon":-62.8239,"lat":10.5689},{"city":"Yala","lon":-65.3991,"lat":-24.1255},{"city":"Yambrasbamba","lon":-77.9,"lat":-5.75},{"city":"Yanagawa","lon":130.4,"lat":33.1667},{"city":"Yanahuaya","lon":-69.2,"lat":-14.2667},{"city":"Yanbei","lon":115.5323,"lat":27.3697},{"city":"Yangjia","lon":118.6711,"lat":31.6154},{"city":"Yangtan","lon":118.7196,"lat":29.8204},{"city":"Yaodian","lon":117.3667,"lat":31.0389},{"city":"Yelan’","lon":113.6183,"lat":-8.1953},{"city":"Yeniugou","lon":97.9333,"lat":34.4167},{"city":"Yeoju","lon":127.6339,"lat":37.2958},{"city":"Yeri","lon":1.6333,"lat":9.95},{"city":"Yevlakh","lon":47.1423,"lat":40.6127},{"city":"Yevpatoriya","lon":33.3665,"lat":45.2009},{"city":"Yifaquan","lon":-73.45,"lat":45.6},{"city":"Yihe","lon":119.353,"lat":29.9606},{"city":"Yinjiaxi","lon":110.4093,"lat":29.1372},{"city":"Yinyang","lon":121.8619,"lat":31.7148},{"city":"Yiwa","lon":103.1689,"lat":34.1374},{"city":"Yiyang","lon":119.2361,"lat":30.1522},{"city":"Yongning","lon":117.8653,"lat":32.3386},{"city":"Yoshikawa","lon":133.75,"lat":34.8167},{"city":"Yuanquan","lon":129.0914,"lat":42.7947},{"city":"Yuecheng","lon":120.9536,"lat":28.1272},{"city":"Yumbel","lon":-72.5667,"lat":-37.0833},{"city":"Yunlu","lon":119.5736,"lat":25.9431},{"city":"Yuta","lon":120.1011,"lat":27.4014},{"city":"Zábreh","lon":124.8469,"lat":6.5031},{"city":"Zabukovica","lon":19.5,"lat":43.9772},{"city":"Zapatero","lon":-73.5872,"lat":5.6736},{"city":"Zaragoza","lon":-70.1736,"lat":-3.9139},{"city":"Zásmuky","lon":111.8475,"lat":22.3442},{"city":"Zemlyansk","lon":54.6086,"lat":51.2269},{"city":"Zengjia","lon":118.3833,"lat":30.4083},{"city":"Zevenaar","lon":6.0957,"lat":51.9254},{"city":"Zhangdiyingzi","lon":127.2833,"lat":50.55},{"city":"Zhayang","lon":119.977,"lat":27.2389},{"city":"Zheleznogorsk","lon":104.1217,"lat":56.5768},{"city":"Zhirnovsk","lon":44.7735,"lat":50.9845},{"city":"Zhongbao","lon":121.2378,"lat":28.3797},{"city":"Zhongchao","lon":111.895,"lat":27.2461},{"city":"Zhongdong","lon":115.269,"lat":26.7297},{"city":"Zhongnan","lon":116.6964,"lat":25.9085},{"city":"Zhongpai","lon":117.2,"lat":31.6833},{"city":"Zhougang","lon":118.0999,"lat":31.416},{"city":"Zhoukou","lon":116.6583,"lat":33.9},{"city":"Zhoushizhuang","lon":118.3583,"lat":33.9667},{"city":"Zhuangbian","lon":118.9772,"lat":25.6383},{"city":"Zhuangke","lon":112.7916,"lat":33.9903},{"city":"Zhuangtou","lon":118.7201,"lat":30.8148},{"city":"Zhuhong","lon":119.6242,"lat":28.7817},{"city":"Zhukovskiy","lon":63.8333,"lat":53.5167},{"city":"Zhulan","lon":115.7111,"lat":25.6268},{"city":"Zhulebino","lon":37.85,"lat":55.7},{"city":"Zhuravka","lon":38.8269,"lat":49.9639},{"city":"Zili","lon":11.8167,"lat":3.9167},{"city":"Zubin Potok","lon":20.6897,"lat":42.9144},{"city":"Zudun","lon":117.3238,"lat":26.6981},{"city":"Zwolle","lon":6.6496,"lat":52.0336},{"city":"Zyrardów","lon":120.8537,"lat":30.8265}]
