[{"lon": 2.417, "lat": 6.35, "city": "Cotonou", "wikipedia": "Cotonou"}, {"lon": -121.467, "lat": 38.55, "city": "Sacramento", "wikipedia": "Sacramento,_California"}, {"lon": 39.167, "lat": 21.533, "city": "Jeddah", "wikipedia": "Jeddah"}, {"lon": 13.033, "lat": 55.583, "city": "Malm%C3%B6", "wikipedia": "Malm%C3%B6"}, {"lon": 3.383, "lat": 6.45, "city": "Lagos", "wikipedia": "Lagos"}, {"lon": -159.767, "lat": -21.2, "city": "Avarua", "wikipedia": "Avarua"}, {"lon": 26.717, "lat": 58.383, "city": "Tartu", "wikipedia": "Tartu"}, {"lon": 29.633, "lat": 46.85, "city": "Tiraspol", "wikipedia": "Tiraspol"}, {"lon": 115.717, "lat": -32.517, "city": "Mandurah", "wikipedia": "Mandurah"}, {"lon": 153.55, "lat": -28.167, "city": "Gold Coast", "wikipedia": "Gold_Coast,_Queensland"}, {"lon": 98.667, "lat": 3.583, "city": "Medan", "wikipedia": "Medan"}, {"lon": 151.2, "lat": -33.85, "city": "Sydney", "wikipedia": "Sydney"}, {"rad": 8512, "city": "\u0410\u0441\u0431\u0435\u0441\u0442", "lng": 61.458114, "cid": "asbest", "lat": 57.005274, "cnm": "\u0410\u0441\u0431\u0435\u0441\u0442"}, {"lon": 9.983, "lat": 53.583, "city": "Hamburg", "wikipedia": "Hamburg"}, {"lon": 69.167, "lat": 34.533, "city": "Kabul", "wikipedia": "Kabul"}, {"lon": -75.5, "lat": 10.4, "city": "Cartagena", "wikipedia": "Cartagena,_Colombia"}, {"lon": 26.217, "lat": -29.1, "city": "Bloemfontein", "wikipedia": "Bloemfontein"}, {"lon": -3.683, "lat": 40.4, "city": "Madrid", "wikipedia": "Madrid"}, {"lon": -76.617, "lat": 39.283, "city": "Baltimore", "wikipedia": "Baltimore"}, {"lon": 100.467, "lat": 7.017, "city": "Hat Yai", "wikipedia": "Hat_Yai"}, {"rad": 10000, "city": "\u041c\u043e\u0441\u043a\u0432\u0430", "lng": 37.620393, "cid": "moscow", "lat": 55.75396, "cnm": "\u041c\u043e\u0441\u043a\u0432\u0430"}, {"lon": -79.383, "lat": 43.65, "city": "Toronto", "wikipedia": "Toronto"}, {"lon": -115.133, "lat": 36.167, "city": "Las Vegas", "wikipedia": "Las_Vegas,_Nevada"}, {"rad": 10000, "city": "\u0411\u0435\u0440\u0435\u0437\u043d\u0438\u043a\u0438", "lng": 56.804015, "cid": "berezniki", "lat": 59.407922, "cnm": "\u0411\u0435\u0440\u0435\u0437\u043d\u0438\u043a\u0438"}, {"rad": 10000, "city": "\u041e\u043c\u0441\u043a", "lng": 73.368212, "cid": "omsk", "lat": 54.989342, "cnm": "\u041e\u043c\u0441\u043a"}, {"lon": 36.283, "lat": 33.5, "city": "Damascus", "wikipedia": "Damascus"}, {"lon": 44.417, "lat": 33.317, "city": "Baghdad", "wikipedia": "Baghdad"}, {"lon": 112.733, "lat": -7.233, "city": "Surabaya", "wikipedia": "Surabaya"}, {"lon": -56.167, "lat": -34.917, "city": "Montevideo", "wikipedia": "Montevideo"}, {"lon": -88.183, "lat": 17.483, "city": "Belize City", "wikipedia": "Belize_City"}, {"lon": 120.967, "lat": 14.583, "city": "Manila", "wikipedia": "Manila"}, {"lon": 6.683, "lat": 0.333, "city": "S%C3%A3o Tom%C3%A9", "wikipedia": "S%C3%A3o_Tom%C3%A9"}, {"lon": 3.883, "lat": 7.367, "city": "Ibadan", "wikipedia": "Ibadan"}, {"lon": 31.217, "lat": 30.05, "city": "Cairo", "wikipedia": "Cairo"}, {"rad": 7308, "city": "\u041d\u0435\u0432\u0438\u043d\u043d\u043e\u043c\u044b\u0441\u0441\u043a", "lng": 41.936061, "cid": "nevinnomissk", "lat": 44.638287, "cnm": "\u041d\u0435\u0432\u0438\u043d\u043d\u043e\u043c\u044b\u0441\u0441\u043a"}, {"lon": 35.733, "lat": -6.167, "city": "Dodoma", "wikipedia": "Dodoma"}, {"lon": -149.883, "lat": 61.217, "city": "Anchorage", "wikipedia": "Anchorage,_Alaska"}, {"lon": -68.933, "lat": -22.467, "city": "Calama", "wikipedia": "Calama,_Chile"}, {"lon": -51.05, "lat": 0.033, "city": "Macap%C3%A1", "wikipedia": "Macap%C3%A1"}, {"lon": -7.583, "lat": 33.533, "city": "Casablanca", "wikipedia": "Casablanca"}, {"lon": -111.883, "lat": 40.75, "city": "Salt Lake City", "wikipedia": "Salt_Lake_City"}, {"lon": 106.917, "lat": 47.917, "city": "Ulan Bator", "wikipedia": "Ulan_Bator"}, {"lon": -103.35, "lat": 20.667, "city": "Guadalajara", "wikipedia": "Guadalajara,_Jalisco"}, {"lon": -89.967, "lat": 35.117, "city": "Memphis", "wikipedia": "Memphis,_Tennessee"}, {"lon": 3.883, "lat": 7.367, "city": "Ibadan", "wikipedia": "Ibadan"}, {"lon": 72.567, "lat": 23.017, "city": "Ahmedabad", "wikipedia": "Ahmedabad"}, {"lon": 43.133, "lat": 11.583, "city": "Djibouti (city)", "wikipedia": "Djibouti_(city)"}, {"lon": -93.25, "lat": 44.967, "city": "Minneapolis", "wikipedia": "Minneapolis"}, {"lon": 126.55, "lat": 37.967, "city": "Kaesong", "wikipedia": "Kaesong"}, {"rad": 10000, "city": "\u0423\u0441\u0441\u0443\u0440\u0438\u0439\u0441\u043a", "lng": 131.95178, "cid": "ussuriysk", "lat": 43.797273, "cnm": "\u0423\u0441\u0441\u0443\u0440\u0438\u0439\u0441\u043a"}, {"lon": 123.45, "lat": 41.783, "city": "Shenyang", "wikipedia": "Shenyang"}, {"lon": 38.933, "lat": 15.333, "city": "Asmara", "wikipedia": "Asmara"}, {"lon": 79.883, "lat": 6.9, "city": "Sri Jayawardenapura-Kotte", "wikipedia": "Sri_Jayawardenapura-Kotte"}, {"lon": 2.183, "lat": 41.383, "city": "Barcelona", "wikipedia": "Barcelona"}, {"rad": 3129, "city": "\u0420\u0435\u0443\u0442\u043e\u0432", "lng": 37.855141, "cid": "reutov", "lat": 55.760515, "cnm": "\u0420\u0435\u0443\u0442\u043e\u0432"}, {"lon": 120.267, "lat": 22.633, "city": "Kaohsiung", "wikipedia": "Kaohsiung"}, {"lon": -76.517, "lat": 3.417, "city": "Cali", "wikipedia": "Cali"}, {"lon": 151.2, "lat": -33.85, "city": "Sydney", "wikipedia": "Sydney"}, {"lon": -38.567, "lat": -3.767, "city": "Fortaleza", "wikipedia": "Fortaleza"}, {"lon": 88.867, "lat": 29.267, "city": "Shigatse", "wikipedia": "Shigatse"}, {"lon": 19.817, "lat": 41.317, "city": "Tirana", "wikipedia": "Tirana"}, {"lon": 126.633, "lat": 45.75, "city": "Harbin", "wikipedia": "Harbin"}, {"lon": 18.583, "lat": 4.35, "city": "Bangui", "wikipedia": "Bangui"}, {"lon": 113.633, "lat": 34.75, "city": "Zhengzhou", "wikipedia": "Zhengzhou"}, {"lon": 81.7, "lat": 7.717, "city": "Batticaloa", "wikipedia": "Batticaloa"}, {"lon": -0.2, "lat": 5.55, "city": "Accra", "wikipedia": "Accra"}, {"lon": 35.317, "lat": 37.0, "city": "Adana", "wikipedia": "Adana"}, {"lon": 98.4, "lat": 7.883, "city": "Phuket (city)", "wikipedia": "Phuket_(city)"}, {"rad": 7704, "city": "\u0410\u043d\u0430\u043f\u0430", "lng": 37.316259, "cid": "anapa", "lat": 44.894997, "cnm": "\u0410\u043d\u0430\u043f\u0430"}, {"rad": 8324, "city": "\u0411\u0435\u0440\u0434\u0441\u043a", "lng": 83.107135, "cid": "berdsk", "lat": 54.758288, "cnm": "\u0411\u0435\u0440\u0434\u0441\u043a"}, {"lon": -63.9, "lat": -8.75, "city": "Porto Velho", "wikipedia": "Porto_Velho"}, {"lon": 102.1, "lat": 14.967, "city": "Nakhon Ratchasima", "wikipedia": "Nakhon_Ratchasima"}]